{"scoreboard":{"lastUpdatedOn":"2019-05-13 7:00:14 AM","gameScore":[{"game":{"ID":"50667","scheduleStatus":"Normal","originalDate":null,"originalTime":null,"delayedOrPostponedReason":null,"date":"2019-05-13","time":"6:35PM","awayTeam":{"ID":"111","City":"Baltimore","Name":"Orioles","Abbreviation":"BAL"},"homeTeam":{"ID":"114","City":"New York","Name":"Yankees","Abbreviation":"NYY"},"location":"Yankee Stadium"},"isUnplayed":"true","isInProgress":"false","isCompleted":"false","playStatus":null,"inningSummary":null},{"game":{"ID":"50666","scheduleStatus":"Normal","originalDate":null,"originalTime":null,"delayedOrPostponedReason":null,"date":"2019-05-13","time":"7:05PM","awayTeam":{"ID":"134","City":"Milwaukee","Name":"Brewers","Abbreviation":"MIL"},"homeTeam":{"ID":"129","City":"Philadelphia","Name":"Phillies","Abbreviation":"PHI"},"location":"Citizens Bank Park"},"isUnplayed":"true","isInProgress":"false","isCompleted":"false","playStatus":null,"inningSummary":null},{"game":{"ID":"50665","scheduleStatus":"Normal","originalDate":null,"originalTime":null,"delayedOrPostponedReason":null,"date":"2019-05-13","time":"7:10PM","awayTeam":{"ID":"122","City":"Houston","Name":"Astros","Abbreviation":"HOU"},"homeTeam":{"ID":"117","City":"Detroit","Name":"Tigers","Abbreviation":"DET"},"location":"Comerica Park"},"isUnplayed":"true","isInProgress":"false","isCompleted":"false","playStatus":null,"inningSummary":null},{"game":{"ID":"50664","scheduleStatus":"Normal","originalDate":null,"originalTime":null,"delayedOrPostponedReason":null,"date":"2019-05-13","time":"7:40PM","awayTeam":{"ID":"124","City":"Los Angeles","Name":"Angels","Abbreviation":"LAA"},"homeTeam":{"ID":"120","City":"Minnesota","Name":"Twins","Abbreviation":"MIN"},"location":"Target Field"},"isUnplayed":"true","isInProgress":"false","isCompleted":"false","playStatus":null,"inningSummary":null},{"game":{"ID":"50668","scheduleStatus":"Normal","originalDate":null,"originalTime":null,"delayedOrPostponedReason":null,"date":"2019-05-13","time":"8:10PM","awayTeam":{"ID":"116","City":"Cleveland","Name":"Indians","Abbreviation":"CLE"},"homeTeam":{"ID":"119","City":"Chicago","Name":"White Sox","Abbreviation":"CWS"},"location":"Guaranteed Rate Field"},"isUnplayed":"true","isInProgress":"false","isCompleted":"false","playStatus":null,"inningSummary":null},{"game":{"ID":"50663","scheduleStatus":"Normal","originalDate":null,"originalTime":null,"delayedOrPostponedReason":null,"date":"2019-05-13","time":"9:40PM","awayTeam":{"ID":"132","City":"Pittsburgh","Name":"Pirates","Abbreviation":"PIT"},"homeTeam":{"ID":"140","City":"Arizona","Name":"Diamondbacks","Abbreviation":"ARI"},"location":"Chase Field"},"isUnplayed":"true","isInProgress":"false","isCompleted":"false","playStatus":null,"inningSummary":null},{"game":{"ID":"50662","scheduleStatus":"Normal","originalDate":null,"originalTime":null,"delayedOrPostponedReason":null,"date":"2019-05-13","time":"10:10PM","awayTeam":{"ID":"125","City":"Oakland","Name":"Athletics","Abbreviation":"OAK"},"homeTeam":{"ID":"123","City":"Seattle","Name":"Mariners","Abbreviation":"SEA"},"location":"T-Mobile Park"},"isUnplayed":"true","isInProgress":"false","isCompleted":"false","playStatus":null,"inningSummary":null}]}}