{"scoreboard":{"lastUpdatedOn":"2019-09-03 10:00:25 AM","gameScore":[{"game":{"ID":"49210","scheduleStatus":"Normal","originalDate":null,"originalTime":null,"delayedOrPostponedReason":null,"date":"2019-09-03","time":"3:10PM","awayTeam":{"ID":"111","City":"Baltimore","Name":"Orioles","Abbreviation":"BAL"},"homeTeam":{"ID":"115","City":"Tampa Bay","Name":"Rays","Abbreviation":"TB"},"location":"Tropicana Field"},"isUnplayed":"true","isInProgress":"false","isCompleted":"false","playStatus":null,"inningSummary":null},{"game":{"ID":"49208","scheduleStatus":"Normal","originalDate":null,"originalTime":null,"delayedOrPostponedReason":null,"date":"2019-09-03","time":"6:35PM","awayTeam":{"ID":"121","City":"Texas","Name":"Rangers","Abbreviation":"TEX"},"homeTeam":{"ID":"114","City":"New York","Name":"Yankees","Abbreviation":"NYY"},"location":"Yankee Stadium"},"isUnplayed":"true","isInProgress":"false","isCompleted":"false","playStatus":null,"inningSummary":null},{"game":{"ID":"49207","scheduleStatus":"Normal","originalDate":null,"originalTime":null,"delayedOrPostponedReason":null,"date":"2019-09-03","time":"6:40PM","awayTeam":{"ID":"129","City":"Philadelphia","Name":"Phillies","Abbreviation":"PHI"},"homeTeam":{"ID":"135","City":"Cincinnati","Name":"Reds","Abbreviation":"CIN"},"location":"Great American Ball Park"},"isUnplayed":"true","isInProgress":"false","isCompleted":"false","playStatus":null,"inningSummary":null},{"game":{"ID":"49205","scheduleStatus":"Normal","originalDate":null,"originalTime":null,"delayedOrPostponedReason":null,"date":"2019-09-03","time":"7:05PM","awayTeam":{"ID":"127","City":"New York","Name":"Mets","Abbreviation":"NYM"},"homeTeam":{"ID":"126","City":"Washington","Name":"Nationals","Abbreviation":"WAS"},"location":"Nationals Park"},"isUnplayed":"true","isInProgress":"false","isCompleted":"false","playStatus":null,"inningSummary":null},{"game":{"ID":"49204","scheduleStatus":"Normal","originalDate":null,"originalTime":null,"delayedOrPostponedReason":null,"date":"2019-09-03","time":"7:05PM","awayTeam":{"ID":"128","City":"Miami","Name":"Marlins","Abbreviation":"MIA"},"homeTeam":{"ID":"132","City":"Pittsburgh","Name":"Pirates","Abbreviation":"PIT"},"location":"PNC Park"},"isUnplayed":"true","isInProgress":"false","isCompleted":"false","playStatus":null,"inningSummary":null},{"game":{"ID":"49209","scheduleStatus":"Normal","originalDate":null,"originalTime":null,"delayedOrPostponedReason":null,"date":"2019-09-03","time":"7:10PM","awayTeam":{"ID":"119","City":"Chicago","Name":"White Sox","Abbreviation":"CWS"},"homeTeam":{"ID":"116","City":"Cleveland","Name":"Indians","Abbreviation":"CLE"},"location":"Progressive Field"},"isUnplayed":"true","isInProgress":"false","isCompleted":"false","playStatus":null,"inningSummary":null},{"game":{"ID":"49206","scheduleStatus":"Normal","originalDate":null,"originalTime":null,"delayedOrPostponedReason":null,"date":"2019-09-03","time":"7:10PM","awayTeam":{"ID":"120","City":"Minnesota","Name":"Twins","Abbreviation":"MIN"},"homeTeam":{"ID":"113","City":"Boston","Name":"Red Sox","Abbreviation":"BOS"},"location":"Fenway Park"},"isUnplayed":"true","isInProgress":"false","isCompleted":"false","playStatus":null,"inningSummary":null},{"game":{"ID":"49196","scheduleStatus":"Normal","originalDate":null,"originalTime":null,"delayedOrPostponedReason":null,"date":"2019-09-03","time":"7:10PM","awayTeam":{"ID":"111","City":"Baltimore","Name":"Orioles","Abbreviation":"BAL"},"homeTeam":{"ID":"115","City":"Tampa Bay","Name":"Rays","Abbreviation":"TB"},"location":"Tropicana Field"},"isUnplayed":"true","isInProgress":"false","isCompleted":"false","playStatus":null,"inningSummary":null},{"game":{"ID":"49200","scheduleStatus":"Normal","originalDate":null,"originalTime":null,"delayedOrPostponedReason":null,"date":"2019-09-03","time":"7:20PM","awayTeam":{"ID":"112","City":"Toronto","Name":"Blue Jays","Abbreviation":"TOR"},"homeTeam":{"ID":"130","City":"Atlanta","Name":"Braves","Abbreviation":"ATL"},"location":"SunTrust Park"},"isUnplayed":"true","isInProgress":"false","isCompleted":"false","playStatus":null,"inningSummary":null},{"game":{"ID":"49199","scheduleStatus":"Normal","originalDate":null,"originalTime":null,"delayedOrPostponedReason":null,"date":"2019-09-03","time":"7:40PM","awayTeam":{"ID":"122","City":"Houston","Name":"Astros","Abbreviation":"HOU"},"homeTeam":{"ID":"134","City":"Milwaukee","Name":"Brewers","Abbreviation":"MIL"},"location":"Miller Park"},"isUnplayed":"true","isInProgress":"false","isCompleted":"false","playStatus":null,"inningSummary":null},{"game":{"ID":"49198","scheduleStatus":"Normal","originalDate":null,"originalTime":null,"delayedOrPostponedReason":null,"date":"2019-09-03","time":"7:45PM","awayTeam":{"ID":"136","City":"San Francisco","Name":"Giants","Abbreviation":"SF"},"homeTeam":{"ID":"133","City":"St. Louis","Name":"Cardinals","Abbreviation":"STL"},"location":"Busch Stadium"},"isUnplayed":"true","isInProgress":"false","isCompleted":"false","playStatus":null,"inningSummary":null},{"game":{"ID":"49201","scheduleStatus":"Normal","originalDate":null,"originalTime":null,"delayedOrPostponedReason":null,"date":"2019-09-03","time":"8:05PM","awayTeam":{"ID":"123","City":"Seattle","Name":"Mariners","Abbreviation":"SEA"},"homeTeam":{"ID":"131","City":"Chicago","Name":"Cubs","Abbreviation":"CHC"},"location":"Wrigley Field"},"isUnplayed":"true","isInProgress":"false","isCompleted":"false","playStatus":null,"inningSummary":null},{"game":{"ID":"49211","scheduleStatus":"Normal","originalDate":null,"originalTime":null,"delayedOrPostponedReason":null,"date":"2019-09-03","time":"8:15PM","awayTeam":{"ID":"117","City":"Detroit","Name":"Tigers","Abbreviation":"DET"},"homeTeam":{"ID":"118","City":"Kansas City","Name":"Royals","Abbreviation":"KC"},"location":"Kauffman Stadium"},"isUnplayed":"true","isInProgress":"false","isCompleted":"false","playStatus":null,"inningSummary":null},{"game":{"ID":"49202","scheduleStatus":"Normal","originalDate":null,"originalTime":null,"delayedOrPostponedReason":null,"date":"2019-09-03","time":"9:40PM","awayTeam":{"ID":"139","City":"San Diego","Name":"Padres","Abbreviation":"SD"},"homeTeam":{"ID":"140","City":"Arizona","Name":"Diamondbacks","Abbreviation":"ARI"},"location":"Chase Field"},"isUnplayed":"true","isInProgress":"false","isCompleted":"false","playStatus":null,"inningSummary":null},{"game":{"ID":"49203","scheduleStatus":"Normal","originalDate":null,"originalTime":null,"delayedOrPostponedReason":null,"date":"2019-09-03","time":"10:07PM","awayTeam":{"ID":"124","City":"Los Angeles","Name":"Angels","Abbreviation":"LAA"},"homeTeam":{"ID":"125","City":"Oakland","Name":"Athletics","Abbreviation":"OAK"},"location":"RingCentral Coliseum"},"isUnplayed":"true","isInProgress":"false","isCompleted":"false","playStatus":null,"inningSummary":null},{"game":{"ID":"49212","scheduleStatus":"Normal","originalDate":null,"originalTime":null,"delayedOrPostponedReason":null,"date":"2019-09-03","time":"10:10PM","awayTeam":{"ID":"138","City":"Colorado","Name":"Rockies","Abbreviation":"COL"},"homeTeam":{"ID":"137","City":"Los Angeles","Name":"Dodgers","Abbreviation":"LAD"},"location":"Dodger Stadium"},"isUnplayed":"true","isInProgress":"false","isCompleted":"false","playStatus":null,"inningSummary":null}]}}