{"scoreboard":{"lastUpdatedOn":"2019-08-08 12:00:17 PM","gameScore":[{"game":{"ID":"49554","scheduleStatus":"Normal","originalDate":null,"originalTime":null,"delayedOrPostponedReason":null,"date":"2019-08-08","time":"7:07PM","awayTeam":{"ID":"114","City":"New York","Name":"Yankees","Abbreviation":"NYY"},"homeTeam":{"ID":"112","City":"Toronto","Name":"Blue Jays","Abbreviation":"TOR"},"location":"Rogers Centre"},"isUnplayed":"true","isInProgress":"false","isCompleted":"false","playStatus":null,"inningSummary":null},{"game":{"ID":"49550","scheduleStatus":"Normal","originalDate":null,"originalTime":null,"delayedOrPostponedReason":null,"date":"2019-08-08","time":"7:10PM","awayTeam":{"ID":"124","City":"Los Angeles","Name":"Angels","Abbreviation":"LAA"},"homeTeam":{"ID":"113","City":"Boston","Name":"Red Sox","Abbreviation":"BOS"},"location":"Fenway Park"},"isUnplayed":"true","isInProgress":"false","isCompleted":"false","playStatus":null,"inningSummary":null},{"game":{"ID":"49551","scheduleStatus":"Normal","originalDate":null,"originalTime":null,"delayedOrPostponedReason":null,"date":"2019-08-08","time":"7:10PM","awayTeam":{"ID":"118","City":"Kansas City","Name":"Royals","Abbreviation":"KC"},"homeTeam":{"ID":"117","City":"Detroit","Name":"Tigers","Abbreviation":"DET"},"location":"Comerica Park"},"isUnplayed":"true","isInProgress":"false","isCompleted":"false","playStatus":null,"inningSummary":null},{"game":{"ID":"49552","scheduleStatus":"Normal","originalDate":null,"originalTime":null,"delayedOrPostponedReason":null,"date":"2019-08-08","time":"7:10PM","awayTeam":{"ID":"131","City":"Chicago","Name":"Cubs","Abbreviation":"CHC"},"homeTeam":{"ID":"135","City":"Cincinnati","Name":"Reds","Abbreviation":"CIN"},"location":"Great American Ball Park"},"isUnplayed":"true","isInProgress":"false","isCompleted":"false","playStatus":null,"inningSummary":null},{"game":{"ID":"49553","scheduleStatus":"Normal","originalDate":null,"originalTime":null,"delayedOrPostponedReason":null,"date":"2019-08-08","time":"7:10PM","awayTeam":{"ID":"130","City":"Atlanta","Name":"Braves","Abbreviation":"ATL"},"homeTeam":{"ID":"128","City":"Miami","Name":"Marlins","Abbreviation":"MIA"},"location":"Marlins Park"},"isUnplayed":"true","isInProgress":"false","isCompleted":"false","playStatus":null,"inningSummary":null},{"game":{"ID":"49549","scheduleStatus":"Normal","originalDate":null,"originalTime":null,"delayedOrPostponedReason":null,"date":"2019-08-08","time":"8:10PM","awayTeam":{"ID":"116","City":"Cleveland","Name":"Indians","Abbreviation":"CLE"},"homeTeam":{"ID":"120","City":"Minnesota","Name":"Twins","Abbreviation":"MIN"},"location":"Target Field"},"isUnplayed":"true","isInProgress":"false","isCompleted":"false","playStatus":null,"inningSummary":null},{"game":{"ID":"49548","scheduleStatus":"Normal","originalDate":null,"originalTime":null,"delayedOrPostponedReason":null,"date":"2019-08-08","time":"9:45PM","awayTeam":{"ID":"129","City":"Philadelphia","Name":"Phillies","Abbreviation":"PHI"},"homeTeam":{"ID":"136","City":"San Francisco","Name":"Giants","Abbreviation":"SF"},"location":"Oracle Park"},"isUnplayed":"true","isInProgress":"false","isCompleted":"false","playStatus":null,"inningSummary":null},{"game":{"ID":"49547","scheduleStatus":"Normal","originalDate":null,"originalTime":null,"delayedOrPostponedReason":null,"date":"2019-08-08","time":"10:10PM","awayTeam":{"ID":"138","City":"Colorado","Name":"Rockies","Abbreviation":"COL"},"homeTeam":{"ID":"139","City":"San Diego","Name":"Padres","Abbreviation":"SD"},"location":"Petco Park"},"isUnplayed":"true","isInProgress":"false","isCompleted":"false","playStatus":null,"inningSummary":null}]}}