{"scoreboard":{"lastUpdatedOn":"2019-08-26 2:00:08 PM","gameScore":[{"game":{"ID":"51107","scheduleStatus":"Normal","originalDate":null,"originalTime":null,"delayedOrPostponedReason":null,"date":"2019-08-26","time":"3:10PM","awayTeam":{"ID":"130","City":"Atlanta","Name":"Braves","Abbreviation":"ATL"},"homeTeam":{"ID":"138","City":"Colorado","Name":"Rockies","Abbreviation":"COL"},"location":"Coors Field"},"isUnplayed":"true","isInProgress":"false","isCompleted":"false","playStatus":null,"inningSummary":null},{"game":{"ID":"49312","scheduleStatus":"Normal","originalDate":null,"originalTime":null,"delayedOrPostponedReason":null,"date":"2019-08-26","time":"7:05PM","awayTeam":{"ID":"133","City":"St. Louis","Name":"Cardinals","Abbreviation":"STL"},"homeTeam":{"ID":"134","City":"Milwaukee","Name":"Brewers","Abbreviation":"MIL"},"location":"Miller Park"},"isUnplayed":"true","isInProgress":"false","isCompleted":"false","playStatus":null,"inningSummary":null},{"game":{"ID":"49314","scheduleStatus":"Normal","originalDate":null,"originalTime":null,"delayedOrPostponedReason":null,"date":"2019-08-26","time":"7:05PM","awayTeam":{"ID":"132","City":"Pittsburgh","Name":"Pirates","Abbreviation":"PIT"},"homeTeam":{"ID":"129","City":"Philadelphia","Name":"Phillies","Abbreviation":"PHI"},"location":"Citizens Bank Park"},"isUnplayed":"true","isInProgress":"false","isCompleted":"false","playStatus":null,"inningSummary":null},{"game":{"ID":"49313","scheduleStatus":"Normal","originalDate":null,"originalTime":null,"delayedOrPostponedReason":null,"date":"2019-08-26","time":"7:10PM","awayTeam":{"ID":"135","City":"Cincinnati","Name":"Reds","Abbreviation":"CIN"},"homeTeam":{"ID":"128","City":"Miami","Name":"Marlins","Abbreviation":"MIA"},"location":"Marlins Park"},"isUnplayed":"true","isInProgress":"false","isCompleted":"false","playStatus":null,"inningSummary":null},{"game":{"ID":"49315","scheduleStatus":"Normal","originalDate":null,"originalTime":null,"delayedOrPostponedReason":null,"date":"2019-08-26","time":"8:15PM","awayTeam":{"ID":"125","City":"Oakland","Name":"Athletics","Abbreviation":"OAK"},"homeTeam":{"ID":"118","City":"Kansas City","Name":"Royals","Abbreviation":"KC"},"location":"Kauffman Stadium"},"isUnplayed":"true","isInProgress":"false","isCompleted":"false","playStatus":null,"inningSummary":null},{"game":{"ID":"49311","scheduleStatus":"Normal","originalDate":null,"originalTime":null,"delayedOrPostponedReason":null,"date":"2019-08-26","time":"9:45PM","awayTeam":{"ID":"140","City":"Arizona","Name":"Diamondbacks","Abbreviation":"ARI"},"homeTeam":{"ID":"136","City":"San Francisco","Name":"Giants","Abbreviation":"SF"},"location":"Oracle Park"},"isUnplayed":"true","isInProgress":"false","isCompleted":"false","playStatus":null,"inningSummary":null},{"game":{"ID":"49309","scheduleStatus":"Normal","originalDate":null,"originalTime":null,"delayedOrPostponedReason":null,"date":"2019-08-26","time":"10:10PM","awayTeam":{"ID":"137","City":"Los Angeles","Name":"Dodgers","Abbreviation":"LAD"},"homeTeam":{"ID":"139","City":"San Diego","Name":"Padres","Abbreviation":"SD"},"location":"Petco Park"},"isUnplayed":"true","isInProgress":"false","isCompleted":"false","playStatus":null,"inningSummary":null},{"game":{"ID":"49310","scheduleStatus":"Normal","originalDate":null,"originalTime":null,"delayedOrPostponedReason":null,"date":"2019-08-26","time":"10:10PM","awayTeam":{"ID":"114","City":"New York","Name":"Yankees","Abbreviation":"NYY"},"homeTeam":{"ID":"123","City":"Seattle","Name":"Mariners","Abbreviation":"SEA"},"location":"T-Mobile Park"},"isUnplayed":"true","isInProgress":"false","isCompleted":"false","playStatus":null,"inningSummary":null}]}}