{"scoreboard":{"lastUpdatedOn":"2019-08-05 11:00:12 AM","gameScore":[{"game":{"ID":"49588","scheduleStatus":"Normal","originalDate":null,"originalTime":null,"delayedOrPostponedReason":null,"date":"2019-08-05","time":"4:10PM","awayTeam":{"ID":"128","City":"Miami","Name":"Marlins","Abbreviation":"MIA"},"homeTeam":{"ID":"127","City":"New York","Name":"Mets","Abbreviation":"NYM"},"location":"Citi Field"},"isUnplayed":"true","isInProgress":"false","isCompleted":"false","playStatus":null,"inningSummary":null},{"game":{"ID":"49593","scheduleStatus":"Normal","originalDate":null,"originalTime":null,"delayedOrPostponedReason":null,"date":"2019-08-05","time":"7:05PM","awayTeam":{"ID":"134","City":"Milwaukee","Name":"Brewers","Abbreviation":"MIL"},"homeTeam":{"ID":"132","City":"Pittsburgh","Name":"Pirates","Abbreviation":"PIT"},"location":"PNC Park"},"isUnplayed":"true","isInProgress":"false","isCompleted":"false","playStatus":null,"inningSummary":null},{"game":{"ID":"49592","scheduleStatus":"Normal","originalDate":null,"originalTime":null,"delayedOrPostponedReason":null,"date":"2019-08-05","time":"7:05PM","awayTeam":{"ID":"114","City":"New York","Name":"Yankees","Abbreviation":"NYY"},"homeTeam":{"ID":"111","City":"Baltimore","Name":"Orioles","Abbreviation":"BAL"},"location":"Oriole Park at Camden Yards"},"isUnplayed":"true","isInProgress":"false","isCompleted":"false","playStatus":null,"inningSummary":null},{"game":{"ID":"49595","scheduleStatus":"Normal","originalDate":null,"originalTime":null,"delayedOrPostponedReason":null,"date":"2019-08-05","time":"7:10PM","awayTeam":{"ID":"121","City":"Texas","Name":"Rangers","Abbreviation":"TEX"},"homeTeam":{"ID":"116","City":"Cleveland","Name":"Indians","Abbreviation":"CLE"},"location":"Progressive Field"},"isUnplayed":"true","isInProgress":"false","isCompleted":"false","playStatus":null,"inningSummary":null},{"game":{"ID":"49590","scheduleStatus":"Normal","originalDate":null,"originalTime":null,"delayedOrPostponedReason":null,"date":"2019-08-05","time":"7:10PM","awayTeam":{"ID":"119","City":"Chicago","Name":"White Sox","Abbreviation":"CWS"},"homeTeam":{"ID":"117","City":"Detroit","Name":"Tigers","Abbreviation":"DET"},"location":"Comerica Park"},"isUnplayed":"true","isInProgress":"false","isCompleted":"false","playStatus":null,"inningSummary":null},{"game":{"ID":"49589","scheduleStatus":"Normal","originalDate":null,"originalTime":null,"delayedOrPostponedReason":null,"date":"2019-08-05","time":"7:10PM","awayTeam":{"ID":"118","City":"Kansas City","Name":"Royals","Abbreviation":"KC"},"homeTeam":{"ID":"113","City":"Boston","Name":"Red Sox","Abbreviation":"BOS"},"location":"Fenway Park"},"isUnplayed":"true","isInProgress":"false","isCompleted":"false","playStatus":null,"inningSummary":null},{"game":{"ID":"49596","scheduleStatus":"Normal","originalDate":null,"originalTime":null,"delayedOrPostponedReason":null,"date":"2019-08-05","time":"7:10PM","awayTeam":{"ID":"112","City":"Toronto","Name":"Blue Jays","Abbreviation":"TOR"},"homeTeam":{"ID":"115","City":"Tampa Bay","Name":"Rays","Abbreviation":"TB"},"location":"Tropicana Field"},"isUnplayed":"true","isInProgress":"false","isCompleted":"false","playStatus":null,"inningSummary":null},{"game":{"ID":"49591","scheduleStatus":"Normal","originalDate":null,"originalTime":null,"delayedOrPostponedReason":null,"date":"2019-08-05","time":"7:10PM","awayTeam":{"ID":"124","City":"Los Angeles","Name":"Angels","Abbreviation":"LAA"},"homeTeam":{"ID":"135","City":"Cincinnati","Name":"Reds","Abbreviation":"CIN"},"location":"Great American Ball Park"},"isUnplayed":"true","isInProgress":"false","isCompleted":"false","playStatus":null,"inningSummary":null},{"game":{"ID":"49587","scheduleStatus":"Normal","originalDate":null,"originalTime":null,"delayedOrPostponedReason":null,"date":"2019-08-05","time":"8:05PM","awayTeam":{"ID":"125","City":"Oakland","Name":"Athletics","Abbreviation":"OAK"},"homeTeam":{"ID":"131","City":"Chicago","Name":"Cubs","Abbreviation":"CHC"},"location":"Wrigley Field"},"isUnplayed":"true","isInProgress":"false","isCompleted":"false","playStatus":null,"inningSummary":null},{"game":{"ID":"49586","scheduleStatus":"Normal","originalDate":null,"originalTime":null,"delayedOrPostponedReason":null,"date":"2019-08-05","time":"8:10PM","awayTeam":{"ID":"130","City":"Atlanta","Name":"Braves","Abbreviation":"ATL"},"homeTeam":{"ID":"120","City":"Minnesota","Name":"Twins","Abbreviation":"MIN"},"location":"Target Field"},"isUnplayed":"true","isInProgress":"false","isCompleted":"false","playStatus":null,"inningSummary":null},{"game":{"ID":"50677","scheduleStatus":"Normal","originalDate":"2019-05-12","originalTime":"1:10PM","delayedOrPostponedReason":"Rain","date":"2019-08-05","time":"8:15PM","awayTeam":{"ID":"128","City":"Miami","Name":"Marlins","Abbreviation":"MIA"},"homeTeam":{"ID":"127","City":"New York","Name":"Mets","Abbreviation":"NYM"},"location":"Citi Field"},"isUnplayed":"true","isInProgress":"false","isCompleted":"false","playStatus":null,"inningSummary":null},{"game":{"ID":"49585","scheduleStatus":"Normal","originalDate":null,"originalTime":null,"delayedOrPostponedReason":null,"date":"2019-08-05","time":"9:40PM","awayTeam":{"ID":"129","City":"Philadelphia","Name":"Phillies","Abbreviation":"PHI"},"homeTeam":{"ID":"140","City":"Arizona","Name":"Diamondbacks","Abbreviation":"ARI"},"location":"Chase Field"},"isUnplayed":"true","isInProgress":"false","isCompleted":"false","playStatus":null,"inningSummary":null},{"game":{"ID":"49584","scheduleStatus":"Normal","originalDate":null,"originalTime":null,"delayedOrPostponedReason":null,"date":"2019-08-05","time":"9:45PM","awayTeam":{"ID":"126","City":"Washington","Name":"Nationals","Abbreviation":"WAS"},"homeTeam":{"ID":"136","City":"San Francisco","Name":"Giants","Abbreviation":"SF"},"location":"Oracle Park"},"isUnplayed":"true","isInProgress":"false","isCompleted":"false","playStatus":null,"inningSummary":null},{"game":{"ID":"49594","scheduleStatus":"Normal","originalDate":null,"originalTime":null,"delayedOrPostponedReason":null,"date":"2019-08-05","time":"10:10PM","awayTeam":{"ID":"133","City":"St. Louis","Name":"Cardinals","Abbreviation":"STL"},"homeTeam":{"ID":"137","City":"Los Angeles","Name":"Dodgers","Abbreviation":"LAD"},"location":"Dodger Stadium"},"isUnplayed":"true","isInProgress":"false","isCompleted":"false","playStatus":null,"inningSummary":null}]}}